{"controlador.TDA.listas.LinkedList":{"head":{"data":{"@class":"modelo.Estacion","nombre":"Estacion A","latitud":-4.041025,"longitud":-79.175648,"fotos":{"head":{"data":{"@class":"string","$":"df17d03c-3363-401d-a8d4-d745de15fb67jpg"},"next":{"data":{"@class":"string","$":"28f1af6a-7cb1-4a42-aff3-f0f997105904jpg"}}},"last":{"@reference":"..\/head\/next"},"size":2}},"next":{"data":{"@class":"modelo.Estacion","nombre":"Estacion B","latitud":-4.043113,"longitud":-79.173862,"fotos":{"head":{"data":{"@class":"string","$":"aa174708-59d9-4267-a2e8-4c1e14466505jpg"},"next":{"data":{"@class":"string","$":"1e8003fa-0960-4e27-ac0f-1dc45b32c6a5jpg"}}},"last":{"@reference":"..\/head\/next"},"size":2}},"next":{"data":{"@class":"modelo.Estacion","nombre":"Estacion C","latitud":-8.421545,"longitud":-4.251647,"fotos":{"head":{"data":{"@class":"string","$":"ebb062d5-e917-42c0-aa79-70262f552fc6"},"next":{"data":{"@class":"string","$":"06ac338e-d6d6-49f0-9a51-cd884382d0fa"}}},"last":{"@reference":"..\/head\/next"},"size":2}},"next":{"data":{"@class":"modelo.Estacion","nombre":"Estacion D","latitud":3.5463634,"longitud":2.4656464,"fotos":{"head":{"data":{"@class":"string","$":"8927c694-4d4c-4c81-b226-ec251afb2449jpg"},"next":{"data":{"@class":"string","$":"a95488bc-8cb6-4ed9-bac0-6d60da0b61acjpg"}}},"last":{"@reference":"..\/head\/next"},"size":2}},"next":{"data":{"@class":"modelo.Estacion","nombre":"Estacion E","latitud":-5.454684,"longitud":-6.426188,"fotos":{"head":{"data":{"@class":"string","$":"727523dc-5aa4-4550-aee9-661e043bfea2"},"next":{"data":{"@class":"string","$":"6b0f7ef3-f54f-4774-b8b9-2668dc63ece5"}}},"last":{"@reference":"..\/head\/next"},"size":2}},"next":{"data":{"@class":"modelo.Estacion","nombre":"Estacion F","latitud":8.42561,"longitud":6.84733,"fotos":{"head":{"data":{"@class":"string","$":"c01ff439-6ce0-4815-903c-968c074e9f26jpg"},"next":{"data":{"@class":"string","$":"f33d80e6-e82f-4923-ae95-ab6c8dc239d0jpg"}}},"last":{"@reference":"..\/head\/next"},"size":2}},"next":{"data":{"@class":"modelo.Estacion","nombre":"Estacion G","latitud":1.426544,"longitud":2.693587,"fotos":{"head":{"data":{"@class":"string","$":"e8d121de-aa93-4cf4-a474-8360537aa10e"},"next":{"data":{"@class":"string","$":"a0a7ec7f-dbcf-487b-bad3-a2a523e077b0"}}},"last":{"@reference":"..\/head\/next"},"size":2}},"next":{"data":{"@class":"modelo.Estacion","nombre":"Estacion H","latitud":4.521362,"longitud":3.214871,"fotos":{"head":{"data":{"@class":"string","$":"d4576879-ddfe-42c3-ba8f-faa67b66d515jpg"},"next":{"data":{"@class":"string","$":"5e981010-53f0-4837-8ec6-a8d9293ef6a2jpg"}}},"last":{"@reference":"..\/head\/next"},"size":2}},"next":{"data":{"@class":"modelo.Estacion","nombre":"Estacion I","latitud":3.561245,"longitud":2.824332,"fotos":{"head":{"data":{"@class":"string","$":"6f65334f-9038-42e8-8ccc-2951a88d2293"},"next":{"data":{"@class":"string","$":"9916a7f6-0250-4d50-adfc-e9c9c746c799"}}},"last":{"@reference":"..\/head\/next"},"size":2}},"next":{"data":{"@class":"modelo.Estacion","nombre":"Estacion K","latitud":6.44528,"longitud":7.15681,"fotos":{"head":{"data":{"@class":"string","$":"98fd1fb1-9d5d-42d4-bc86-27c47c7cc8c2"},"next":{"data":{"@class":"string","$":"29f54c6e-d379-4988-ac54-2af9275c5ed6"}}},"last":{"@reference":"..\/head\/next"},"size":2}},"next":{"data":{"@class":"modelo.Estacion","nombre":"Estacion L","latitud":-8.66421,"longitud":-6.41613,"fotos":{"head":{"data":{"@class":"string","$":"8f53bffc-9c9d-4d86-a088-1b11d37103a0"},"next":{"data":{"@class":"string","$":"17838654-bbfb-4970-9941-ddca3e1c64a1"}}},"last":{"@reference":"..\/head\/next"},"size":2}},"next":{"data":{"@class":"modelo.Estacion","nombre":"Estacion M","latitud":6.54078,"longitud":-9.5644,"fotos":{"head":{"data":{"@class":"string","$":"d72d6ec3-2890-400b-b542-2bf7f4ab3956"},"next":{"data":{"@class":"string","$":"7d741747-e5fe-4a0a-ab33-19a9a6f3ac8c"}}},"last":{"@reference":"..\/head\/next"},"size":2}},"next":{"data":{"@class":"modelo.Estacion","nombre":"Estacion N","latitud":-8.42163,"longitud":-3.25453,"fotos":{"head":{"data":{"@class":"string","$":"bb404169-8654-40f7-8c51-bed3b684b7fb"},"next":{"data":{"@class":"string","$":"e6bf3ee3-563c-40f6-9392-4959beb878c2"}}},"last":{"@reference":"..\/head\/next"},"size":2}},"next":{"data":{"@class":"modelo.Estacion","nombre":"Estacion O","latitud":1.25348,"longitud":2.54927,"fotos":{"head":{"data":{"@class":"string","$":"0da4bc08-a77d-4b2f-aeb5-8960e8758a32"},"next":{"data":{"@class":"string","$":"800c428d-b300-4080-aaa9-804a1bd8b8e9"}}},"last":{"@reference":"..\/head\/next"},"size":2}},"next":{"data":{"@class":"modelo.Estacion","nombre":"Estacion P","latitud":-5.434258,"longitud":-2.545435,"fotos":{"head":{"data":{"@class":"string","$":"ce2412e8-cb6c-44e2-a955-eea664b32ce7"},"next":{"data":{"@class":"string","$":"f32eb5cb-2df0-4802-8739-ca3d986e8acc"}}},"last":{"@reference":"..\/head\/next"},"size":2}},"next":{"data":{"@class":"modelo.Estacion","nombre":"Estacion Q","latitud":4.166034,"longitud":3.548344,"fotos":{"head":{"data":{"@class":"string","$":"538c5d26-bd8b-45c8-b1c3-d3891346f1c0"},"next":{"data":{"@class":"string","$":"9a9f468d-af5c-4e4e-8dc4-93f59c03d392"}}},"last":{"@reference":"..\/head\/next"},"size":2}},"next":{"data":{"@class":"modelo.Estacion","nombre":"Estacion R","latitud":-5.13273,"longitud":-3.84667,"fotos":{"head":{"data":{"@class":"string","$":"2b62d928-834a-4c9e-9dde-80f7a49f67f7"},"next":{"data":{"@class":"string","$":"f19557b4-1818-4033-b43f-f53a6b2b5e7a"}}},"last":{"@reference":"..\/head\/next"},"size":2}},"next":{"data":{"@class":"modelo.Estacion","nombre":"Estacion S","latitud":4.253568,"longitud":7.238264,"fotos":{"head":{"data":{"@class":"string","$":"c8f1fcec-9f32-4be8-9e41-9774f739cc71"},"next":{"data":{"@class":"string","$":"a313d4af-c08f-446e-970a-c80f122197da"}}},"last":{"@reference":"..\/head\/next"},"size":2}},"next":{"data":{"@class":"modelo.Estacion","nombre":"Estacion T","latitud":-6.345878,"longitud":-6.124234,"fotos":{"head":{"data":{"@class":"string","$":"1e2e1861-a41a-4100-8e4d-99a79fe8c232"},"next":{"data":{"@class":"string","$":"5a0ba3a5-fcf0-47e4-a974-e2c4f1c8787d"}}},"last":{"@reference":"..\/head\/next"},"size":2}},"next":{"data":{"@class":"modelo.Estacion","nombre":"Estacion J","latitud":-6.24668,"longitud":-1.43832,"fotos":{"head":{"data":{"@class":"string","$":"4916ca36-38ac-4c65-92b2-f74720859074"},"next":{"data":{"@class":"string","$":"14fed814-27a6-4ebc-b374-408b46c1bbf9"}}},"last":{"@reference":"..\/head\/next"},"size":2}},"next":{"data":{"@class":"modelo.Estacion","nombre":"Estacion U","latitud":-4.172472,"longitud":-5.424867,"fotos":{"head":{"data":{"@class":"string","$":"ddb60bfa-2310-47df-ae00-972cf8348f0e"},"next":{"data":{"@class":"string","$":"13958056-e6cf-4d08-b8da-46745a3f5b44"}}},"last":{"@reference":"..\/head\/next"},"size":2}},"next":{"data":{"@class":"modelo.Estacion","nombre":"Estacion V","latitud":-5.14266,"longitud":-6.47176,"fotos":{"head":{"data":{"@class":"string","$":"6aaf1bff-ee66-4174-91c4-32af89ad5619"},"next":{"data":{"@class":"string","$":"977fe7a2-880c-44bd-b82e-9de4ed511359"}}},"last":{"@reference":"..\/head\/next"},"size":2}},"next":{"data":{"@class":"modelo.Estacion","nombre":"Estacion W","latitud":-6.42824,"longitud":-5.40519,"fotos":{"head":{"data":{"@class":"string","$":"b33e1764-de6d-44f2-ba66-51972d3232bd"},"next":{"data":{"@class":"string","$":"72642b5d-9a85-4f91-82ee-3b52a10a23e9"}}},"last":{"@reference":"..\/head\/next"},"size":2}},"next":{"data":{"@class":"modelo.Estacion","nombre":"Estacion X","latitud":-8.42625,"longitud":-5.54634,"fotos":{"head":{"data":{"@class":"string","$":"83ba351d-adc5-4416-91f0-3123d4cf1b80"},"next":{"data":{"@class":"string","$":"eb9d8fc9-cd2c-4eb5-a3b5-7469b6dc3727"}}},"last":{"@reference":"..\/head\/next"},"size":2}},"next":{"data":{"@class":"modelo.Estacion","nombre":"Estacion Y","latitud":-8.42536,"longitud":-6.4265,"fotos":{"head":{"data":{"@class":"string","$":"d210b302-31e9-4644-a22f-eff833fc5813"},"next":{"data":{"@class":"string","$":"11ed0e2f-79e1-45dd-aea0-5891355f7d64"}}},"last":{"@reference":"..\/head\/next"},"size":2}},"next":{"data":{"@class":"modelo.Estacion","nombre":"Estacion Z","latitud":-6.42635,"longitud":-534662,"fotos":{"head":{"data":{"@class":"string","$":"75d97819-7774-47e5-bef6-7f8e7b1c4942"},"next":{"data":{"@class":"string","$":"3642e14b-2b89-4667-b7e6-805ebb295645"}}},"last":{"@reference":"..\/head\/next"},"size":2}},"next":{"data":{"@class":"modelo.Estacion","nombre":"Estacion 1","latitud":-7.12469,"longitud":-6.43634,"fotos":{"head":{"data":{"@class":"string","$":"b5e11e69-01e4-4996-bc3e-b99bc431b788"},"next":{"data":{"@class":"string","$":"a52fcf56-70c6-4492-9e11-75f094872feb"}}},"last":{"@reference":"..\/head\/next"},"size":2}},"next":{"data":{"@class":"modelo.Estacion","nombre":"Estacion 2","latitud":-6.435258,"longitud":-7.463493,"fotos":{"head":{"data":{"@class":"string","$":"70a1b86f-f50c-46b8-823c-2140762c3ab8"},"next":{"data":{"@class":"string","$":"43aed5a8-9c74-4941-93fe-ff65e76ad4b9"}}},"last":{"@reference":"..\/head\/next"},"size":2}},"next":{"data":{"@class":"modelo.Estacion","nombre":"Estacion 3","latitud":4.53934,"longitud":8.46573,"fotos":{"head":{"data":{"@class":"string","$":"846ab3e5-dc0c-4102-bf4d-4e00aead3282"},"next":{"data":{"@class":"string","$":"7c19cae7-d299-448e-b1dd-769cfd877258"}}},"last":{"@reference":"..\/head\/next"},"size":2}},"next":{"data":{"@class":"modelo.Estacion","nombre":"Estacion 4","latitud":4.53942,"longitud":2.53937,"fotos":{"head":{"data":{"@class":"string","$":"d1a21e83-b1ee-4ac5-a8a9-2513357d9bde"},"next":{"data":{"@class":"string","$":"877a9abc-60a0-4195-af8c-696081403bc1"}}},"last":{"@reference":"..\/head\/next"},"size":2}}}}}}}}}}}}}}}}}}}}}}}}}}}}}}}},"last":{"@reference":"..\/head\/next\/next\/next\/next\/next\/next\/next\/next\/next\/next\/next\/next\/next\/next\/next\/next\/next\/next\/next\/next\/next\/next\/next\/next\/next\/next\/next\/next\/next"},"size":30}}